name,latitude,longitude
New York City,40.7128,-74.0060
Los Angeles,34.0522,-118.2437
Chicago,41.8781,-87.6298
Houston,29.7604,-95.3698
London,51.5074,-0.1278
Paris,48.8566,2.3522
Tokyo,35.6762,139.6503
Sydney,-33.8688,151.2093
Dubai,25.2048,55.2708
Seattle,47.6062,-122.3321
